[
  {
    "name": "Brickyard",
    "address": "1172 E Brickyard Rd, Salt Lake City, UT 84106",
    "lat": 40.7013493,
    "lng": -111.8581927,
    "id": "9178",
    "#": 10.0,
    "CLUB": "Brickyard",
    "ID": 9178.0,
    "GM": "Temple Fuimaono",
    "GM CELL": "215-500-6056",
    "AGM": null,
    "MEL": "Conner Ama",
    "GFSTL/GFTL": null,
    "STL": "Austin Isle",
    "7": 1,
    "PTL": "Landon Barbee",
    "CCTL": null,
    "MAINTENANCE TECH": "Claire Plimpton",
    "MT PHONE": "385-471-6726",
    "ADDRESS": "1172 E Brickyard Rd, Salt Lake City, UT 84106",
    "Latitude": 40.7013493,
    "Longitude": -111.8581927,
    "CLUB PHONE": "801-484-8786"
  },
  {
    "name": "West Valley 3500 S",
    "address": "3491 W 3500 S, West Valley, UT 84119",
    "lat": 40.6949131999999,
    "lng": -111.9741402,
    "id": "8178",
    "#": 7.0,
    "CLUB": "West Valley 3500 S",
    "ID": 8178.0,
    "GM": "Luis Lorenzana",
    "GM CELL": "801-661-3781",
    "AGM": null,
    "MEL": "Adrian Sirikhom",
    "GFSTL/GFTL": "Liana Cardoso",
    "STL": null,
    "7": null,
    "PTL": "Carlos Abrego",
    "CCTL": "Dacia Ng",
    "MAINTENANCE TECH": "Michael Taylor",
    "MT PHONE": "385-800-0117",
    "ADDRESS": "3491 W 3500 S, West Valley, UT 84119",
    "Latitude": 40.6949131999999,
    "Longitude": -111.9741402,
    "CLUB PHONE": "801-969-2344"
  },
  {
    "name": "Magna (Centennial)",
    "address": "3420 S 5600 W, West Valley City, UT 84120",
    "lat": 40.6981647,
    "lng": -112.0263694,
    "id": "6264",
    "#": 21.0,
    "CLUB": "Magna (Centennial)",
    "ID": 6264.0,
    "GM": "Mitchell Bradley",
    "GM CELL": "801-828-8287",
    "AGM": null,
    "MEL": "Andrix Ayala",
    "GFSTL/GFTL": "Hunter Plese",
    "STL": null,
    "7": null,
    "PTL": "Ayrial Johnson",
    "CCTL": null,
    "MAINTENANCE TECH": "Josh Van Wagoner",
    "MT PHONE": "801-828-8463",
    "ADDRESS": "3420 S 5600 W, West Valley City, UT 84120",
    "Latitude": 40.6981647,
    "Longitude": -112.0263694,
    "CLUB PHONE": "801-250-8272"
  },
  {
    "name": "Taylorsville",
    "address": "5345 S 4015 W, Taylorsville, UT 84129",
    "lat": 40.6543044999999,
    "lng": -111.9852543,
    "id": "5420",
    "#": 12.0,
    "CLUB": "Taylorsville",
    "ID": 5420.0,
    "GM": "Hunter Nicholls",
    "GM CELL": "801-882-5510",
    "AGM": null,
    "MEL": "Senitalela Utuone",
    "GFSTL/GFTL": "Sandi Call",
    "STL": null,
    "7": null,
    "PTL": "Marley Sio",
    "CCTL": null,
    "MAINTENANCE TECH": "Joe Holm",
    "MT PHONE": "801-502-3466",
    "ADDRESS": "5345 S 4015 W, Taylorsville, UT 84129",
    "Latitude": 40.6543044999999,
    "Longitude": -111.9852543,
    "CLUB PHONE": "801-912-0233"
  },
  {
    "name": "Tooele",
    "address": "250 N Main St, Tooele, UT 84074",
    "lat": 40.5355693,
    "lng": -112.2974605,
    "id": "8663",
    "#": 15.0,
    "CLUB": "Tooele",
    "ID": 8663.0,
    "GM": "Edrie Walker",
    "GM CELL": "435-841-2097",
    "AGM": null,
    "MEL": "Kelsey Gilgen",
    "GFSTL/GFTL": "Stacy O'Rourke",
    "STL": null,
    "7": null,
    "PTL": "Jesja Beebe",
    "CCTL": "Brittany Romeiser",
    "MAINTENANCE TECH": "Alex Cummings",
    "MT PHONE": "435-659-8060",
    "ADDRESS": "250 N Main St, Tooele, UT 84074",
    "Latitude": 40.5355693,
    "Longitude": -112.2974605,
    "CLUB PHONE": "435-249-7133"
  },
  {
    "name": "Spanish Fork",
    "address": "652 N 800 E, Spanish Fork, UT 84660",
    "lat": 40.1181327,
    "lng": -111.6398019,
    "id": "6274",
    "#": 39.0,
    "CLUB": "Spanish Fork",
    "ID": 6274.0,
    "GM": "Jordan Beattie starts 2.25.26",
    "GM CELL": "334-714-9427",
    "AGM": null,
    "MEL": "Opened 2.18.26 Taylor Bey last day 3.3.26",
    "GFSTL/GFTL": "Yanger Mendoza",
    "STL": "Mariann Landon",
    "7": 1,
    "PTL": "Delphin Kilembi",
    "CCTL": "Kaitlin Maxfield",
    "MAINTENANCE TECH": "Hayden Collins",
    "MT PHONE": "385-394-9690",
    "ADDRESS": "652 N 800 E, Spanish Fork, UT 84660",
    "Latitude": 40.1181327,
    "Longitude": -111.6398019,
    "CLUB PHONE": "801-798-9900"
  },
  {
    "name": "Provo",
    "address": "460 N 900 E, Provo, UT 84606",
    "lat": 40.2402918,
    "lng": -111.6421309,
    "id": "#REF!",
    "#": 1.0,
    "CLUB": "Provo",
    "ID": "#REF!",
    "GM": "Isabelle Little",
    "GM CELL": "530-755-7433",
    "AGM": null,
    "MEL": "Taylor Kilgore",
    "GFSTL/GFTL": null,
    "STL": null,
    "7": null,
    "PTL": "Calvin Brady",
    "CCTL": null,
    "MAINTENANCE TECH": "Dallan Handy",
    "MT PHONE": "385-482-7909",
    "ADDRESS": "460 N 900 E, Provo, UT 84606",
    "Latitude": 40.2402918,
    "Longitude": -111.6421309,
    "CLUB PHONE": "801-377-2666"
  },
  {
    "name": "University",
    "address": "1259 S 800 E, Orem, UT 84097",
    "lat": 40.2745318,
    "lng": -111.6734317,
    "id": "#REF!",
    "#": 8.0,
    "CLUB": "University",
    "ID": "#REF!",
    "GM": "Wayne Farnsworth",
    "GM CELL": "801-616-1685",
    "AGM": "Christian Farmer",
    "MEL": "Hayden Samuels",
    "GFSTL/GFTL": "Tyler Aliff",
    "STL": null,
    "7": null,
    "PTL": "Kaden Bayne",
    "CCTL": "Hannah Williams",
    "MAINTENANCE TECH": "Troy Beal",
    "MT PHONE": "435-580-9550",
    "ADDRESS": "1259 S 800 E, Orem, UT 84097",
    "Latitude": 40.2745318,
    "Longitude": -111.6734317,
    "CLUB PHONE": "801-655-1139"
  },
  {
    "name": "North Orem",
    "address": "1585 N State St, Orem, UT 84057",
    "lat": 40.3256846,
    "lng": -111.7099542,
    "id": "6701",
    "#": 47.0,
    "CLUB": "North Orem",
    "ID": 6701.0,
    "GM": "Joshua Blackmer",
    "GM CELL": "385-588-4867",
    "AGM": null,
    "MEL": "Amelia Chen",
    "GFSTL/GFTL": "Lizzie Palmer",
    "STL": "Natalie Wilkins",
    "7": 1,
    "PTL": "Shawn Turner",
    "CCTL": "Haylie Amor",
    "MAINTENANCE TECH": "Douglas Silva",
    "MT PHONE": "801-376-7969",
    "ADDRESS": "1585 N State St, Orem, UT 84057",
    "Latitude": 40.3256846,
    "Longitude": -111.7099542,
    "CLUB PHONE": "801-221-8272"
  },
  {
    "name": "American Fork",
    "address": "648 E State Rd, American Fork, UT 84003",
    "lat": 40.3715644,
    "lng": -111.7817744,
    "id": "6418",
    "#": 5.0,
    "CLUB": "American Fork",
    "ID": 6418.0,
    "GM": "Ethan Simons",
    "GM CELL": "385-707-3387",
    "AGM": null,
    "MEL": "Richard Holloman",
    "GFSTL/GFTL": "Kailey Simmons",
    "STL": null,
    "7": null,
    "PTL": "Garrett Coyle",
    "CCTL": "Nancy Johnson",
    "MAINTENANCE TECH": "Alexander Butler",
    "MT PHONE": "385-630-3511",
    "ADDRESS": "648 E State Rd, American Fork, UT 84003",
    "Latitude": 40.3715644,
    "Longitude": -111.7817744,
    "CLUB PHONE": "801-492-4652"
  },
  {
    "name": "Draper",
    "address": "12101 S State St, Draper, UT 84020",
    "lat": 40.5319141,
    "lng": -111.8907954,
    "id": "3727",
    "#": 16.0,
    "CLUB": "Draper",
    "ID": 3727.0,
    "GM": "Luke Morrison",
    "GM CELL": "603-630-8550",
    "AGM": null,
    "MEL": "Brynn Harwood",
    "GFSTL/GFTL": "Justin Adams",
    "STL": null,
    "7": null,
    "PTL": "Braden Bauer",
    "CCTL": null,
    "MAINTENANCE TECH": "Jay Dettre",
    "MT PHONE": "775-253-4503",
    "ADDRESS": "12101 S State St, Draper, UT 84020",
    "Latitude": 40.5319141,
    "Longitude": -111.8907954,
    "CLUB PHONE": "801-262-8272"
  },
  {
    "name": "Riverton",
    "address": "1777 W 12600 S, Riverton, UT  84065",
    "lat": 40.5208099,
    "lng": -111.9401391,
    "id": "7483",
    "#": 18.0,
    "CLUB": "Riverton",
    "ID": 7483.0,
    "GM": "Cade Lambert",
    "GM CELL": "530-526-3582",
    "AGM": null,
    "MEL": "Racheal Hill",
    "GFSTL/GFTL": "James Banford",
    "STL": null,
    "7": null,
    "PTL": "Stockton McClellan",
    "CCTL": "Jennifer Brown",
    "MAINTENANCE TECH": "Reopened 1.14.26 Jared Burton starts 2.18.26",
    "MT PHONE": "801-500-5390",
    "ADDRESS": "1777 W 12600 S, Riverton, UT  84065",
    "Latitude": 40.5208099,
    "Longitude": -111.9401391,
    "CLUB PHONE": "801-255-8272"
  },
  {
    "name": "Herriman",
    "address": "13366 S Rosecrest Rd, Herriman, UT 84096",
    "lat": 40.5090684,
    "lng": -112.0266508,
    "id": "1046",
    "#": 48.0,
    "CLUB": "Herriman",
    "ID": 1046.0,
    "GM": "Bri Smith",
    "GM CELL": "801-889-5686",
    "AGM": null,
    "MEL": "Jenny Rivera",
    "GFSTL/GFTL": "Samuel Davis",
    "STL": null,
    "7": null,
    "PTL": "Esteban French",
    "CCTL": "Krista Johnson",
    "MAINTENANCE TECH": "Tyler Gordon",
    "MT PHONE": "385-227-3688",
    "ADDRESS": "13366 S Rosecrest Rd, Herriman, UT 84096",
    "Latitude": 40.5090684,
    "Longitude": -112.0266508,
    "CLUB PHONE": "801-305-1610"
  },
  {
    "name": "South Jordan",
    "address": "3709 W South Jordan Pkwy, South Jordan, UT 84095",
    "lat": 40.5618142999999,
    "lng": -111.9790334,
    "id": "7656",
    "#": 17.0,
    "CLUB": "South Jordan",
    "ID": 7656.0,
    "GM": "Maayan Stafford",
    "GM CELL": "918-925-2963",
    "AGM": null,
    "MEL": "Opened 2.20.26 Dylan Child last day 2.28.26",
    "GFSTL/GFTL": "McKenzie Turner",
    "STL": null,
    "7": null,
    "PTL": "Sean Kimsey",
    "CCTL": "Mckenzie Sheen",
    "MAINTENANCE TECH": "Justin English",
    "MT PHONE": "801-889-0110",
    "ADDRESS": "3709 W South Jordan Pkwy, South Jordan, UT 84095",
    "Latitude": 40.5618142999999,
    "Longitude": -111.9790334,
    "CLUB PHONE": "801-446-1100"
  },
  {
    "name": "West Jordan",
    "address": "7836 S Redwood Rd, West Jordan, UT 84088",
    "lat": 40.6082167,
    "lng": -111.9399528,
    "id": "7741",
    "#": 6.0,
    "CLUB": "West Jordan",
    "ID": 7741.0,
    "GM": "Parker Devey",
    "GM CELL": "801-651-1454",
    "AGM": null,
    "MEL": "Brock Johnson",
    "GFSTL/GFTL": "Abril Marquez",
    "STL": null,
    "7": null,
    "PTL": "Katie Martindale",
    "CCTL": "Kara Ranada",
    "MAINTENANCE TECH": "Jason Collins",
    "MT PHONE": "801-745-7440",
    "ADDRESS": "7836 S Redwood Rd, West Jordan, UT 84088",
    "Latitude": 40.6082167,
    "Longitude": -111.9399528,
    "CLUB PHONE": "801-565-1800"
  },
  {
    "name": "Murray Van Winkle",
    "address": "5518 S Van Winkle, Murray, UT 84117",
    "lat": 40.6511157,
    "lng": -111.8515487,
    "id": "#REF!",
    "#": 11.0,
    "CLUB": "Murray Van Winkle",
    "ID": "#REF!",
    "GM": "Siaosi Hala'ufia",
    "GM CELL": "209-981-5764",
    "AGM": null,
    "MEL": "Mariana Rodriguez",
    "GFSTL/GFTL": "Michaela Eisenhut",
    "STL": null,
    "7": null,
    "PTL": "Ethan Hearne",
    "CCTL": "Clarissa Cruz Solano",
    "MAINTENANCE TECH": "Isaiah Sanchez",
    "MT PHONE": "801-839-6293",
    "ADDRESS": "5518 S Van Winkle, Murray, UT 84117",
    "Latitude": 40.6511157,
    "Longitude": -111.8515487,
    "CLUB PHONE": "801-277-8668"
  },
  {
    "name": "Sandy",
    "address": "7990 S 1300 E, Sandy, UT 84094",
    "lat": 40.6063896,
    "lng": -111.8544118,
    "id": "#REF!",
    "#": 9.0,
    "CLUB": "Sandy",
    "ID": "#REF!",
    "GM": "Lillianna Anderson",
    "GM CELL": "805-710-4588",
    "AGM": null,
    "MEL": "Opened 2.12.26 Will Murray last day 3.1.26",
    "GFSTL/GFTL": "Richelle Anderson",
    "STL": "Khara Dimick",
    "7": 1,
    "PTL": "Samantha Blevins",
    "CCTL": "Yessenia Garcia",
    "MAINTENANCE TECH": "Jordan Graham",
    "MT PHONE": "801-573-6412",
    "ADDRESS": "7990 S 1300 E, Sandy, UT 84094",
    "Latitude": 40.6063896,
    "Longitude": -111.8544118,
    "CLUB PHONE": "801-858-2002"
  },
  {
    "name": "Lehi",
    "address": "1640 E 3500 N, Lehi, UT 84043",
    "lat": 40.430027,
    "lng": -111.8230682,
    "id": "1060",
    "#": 60.0,
    "CLUB": "Lehi",
    "ID": 1060.0,
    "GM": "Winston Coxon",
    "GM CELL": "801-884-3370",
    "AGM": "Jonah Lewis",
    "MEL": "Opened 2.11.26",
    "GFSTL/GFTL": "Kyle Garcia covering until filled",
    "STL": null,
    "7": null,
    "PTL": "Carlos Urdanete",
    "CCTL": "Dani Sagiao",
    "MAINTENANCE TECH": "Opened 2.12.26",
    "MT PHONE": null,
    "ADDRESS": "1640 E 3500 N, Lehi, UT 84043",
    "Latitude": 40.430027,
    "Longitude": -111.8230682,
    "CLUB PHONE": "801-939-3452"
  },
  {
    "name": "Saratoga Springs",
    "address": "1320 S Redwood Rd, Saratoga Springs, UT 84045",
    "lat": 40.7402648,
    "lng": -111.9395355,
    "id": "7272",
    "#": 62.0,
    "CLUB": "Saratoga Springs",
    "ID": 7272.0,
    "GM": "Jamie Shaw",
    "GM CELL": "801-898-8504",
    "AGM": "Mackenzie Quarry",
    "MEL": "Amber Dutkiewicz",
    "GFSTL/GFTL": "Eddie Kill",
    "STL": "Aryann Aird",
    "7": 1,
    "PTL": "Eric Hurns starts 3.2.26",
    "CCTL": "Jackie Hall",
    "MAINTENANCE TECH": "Makaio Roberts + PT Chris Roberts",
    "MT PHONE": "801-410-3157/385-377-6805",
    "ADDRESS": "1320 S Redwood Rd, Saratoga Springs, UT 84045",
    "Latitude": 40.7402648,
    "Longitude": -111.9395355,
    "CLUB PHONE": "801-766-8272"
  },
  {
    "name": "Cedar City",
    "address": "1605 West Regency Rd, Cedar City, UT 84720",
    "lat": 37.6582953,
    "lng": -113.0827392,
    "id": "6228",
    "#": 2.0,
    "CLUB": "Cedar City",
    "ID": 6228.0,
    "GM": "Opened 2.16.26 Taylor Fife last day 3.1.26",
    "GM CELL": "808-721-0016",
    "AGM": null,
    "MEL": "Olaea Puefua",
    "GFSTL/GFTL": "Cindy Briggs",
    "STL": null,
    "7": null,
    "PTL": "Luke Barr",
    "CCTL": null,
    "MAINTENANCE TECH": "Justin Wimsatt",
    "MT PHONE": "435-590-0309",
    "ADDRESS": "1605 West Regency Rd, Cedar City, UT 84720",
    "Latitude": 37.6582953,
    "Longitude": -113.0827392,
    "CLUB PHONE": "435-867-5077"
  },
  {
    "name": "St. George",
    "address": "484 N Mall Dr, St. George, UT 84790",
    "lat": 37.1168582,
    "lng": -113.5417871,
    "id": "6591",
    "#": 14.0,
    "CLUB": "St. George",
    "ID": 6591.0,
    "GM": "Eric Hurns last day 2.28.26/Taylor Fife starts 3.2.26",
    "GM CELL": "302-480-3472/808-721-0016",
    "AGM": null,
    "MEL": "Jennifer Redwine",
    "GFSTL/GFTL": "Ava Reece",
    "STL": null,
    "7": null,
    "PTL": "Brice Page",
    "CCTL": "Abigail Cooter",
    "MAINTENANCE TECH": "Opened 2.18.26",
    "MT PHONE": null,
    "ADDRESS": "484 N Mall Dr, St. George, UT 84790",
    "Latitude": 37.1168582,
    "Longitude": -113.5417871,
    "CLUB PHONE": "435-628-9201"
  },
  {
    "name": "Phoenix  Northern Ave",
    "address": "8021 N 35th Ave, Phoenix, AZ 85051",
    "lat": 33.5538951,
    "lng": -112.131937,
    "id": "1048",
    "#": 51.0,
    "CLUB": "Phoenix  Northern Ave",
    "ID": 1048.0,
    "GM": "Hero Pham",
    "GM CELL": "602-535-6240",
    "AGM": null,
    "MEL": "Joselyn Segoviano Velazquez",
    "GFSTL/GFTL": "Tabatha Ward",
    "STL": null,
    "7": null,
    "PTL": "Rene Herrera",
    "CCTL": "Geo Villa Diaz",
    "MAINTENANCE TECH": "Lunalilo Wilcox",
    "MT PHONE": "808-738-7468",
    "ADDRESS": "8021 N 35th Ave, Phoenix, AZ 85051",
    "Latitude": 33.5538951,
    "Longitude": -112.131937,
    "CLUB PHONE": "602-610-8078"
  },
  {
    "name": "Phoenix East Thunderbird & 32nd (2)",
    "address": "3131 E Thunderbird Rd, Phoenix, AZ 85032",
    "lat": 33.6097312,
    "lng": -112.0139719,
    "id": "1043",
    "#": 42.0,
    "CLUB": "Phoenix East Thunderbird & 32nd (2)",
    "ID": 1043.0,
    "GM": "Liz Dubberke",
    "GM CELL": "602-821-0909",
    "AGM": null,
    "MEL": "Zach Cole",
    "GFSTL/GFTL": "Carter Englund",
    "STL": null,
    "7": null,
    "PTL": "Rebekah Perry",
    "CCTL": "Abby Golladay",
    "MAINTENANCE TECH": "Kyle Bland",
    "MT PHONE": "602-517-3891",
    "ADDRESS": "3131 E Thunderbird Rd, Phoenix, AZ 85032",
    "Latitude": 33.6097312,
    "Longitude": -112.0139719,
    "CLUB PHONE": "602-476-2666"
  },
  {
    "name": "Phoenix West Thunderbird & 43rd",
    "address": "4255 W Thunderbird Rd, Phoenix, AZ 85053",
    "lat": 33.6092141,
    "lng": -112.1502032,
    "id": "1033",
    "#": 38.0,
    "CLUB": "Phoenix West Thunderbird & 43rd",
    "ID": 1033.0,
    "GM": "Abraham Garcia",
    "GM CELL": "602-777-0277",
    "AGM": null,
    "MEL": "Zane Brethour",
    "GFSTL/GFTL": "Keith Lockwood",
    "STL": null,
    "7": null,
    "PTL": "Nikco Brown",
    "CCTL": "Evelyn Tapia",
    "MAINTENANCE TECH": "Nicholas Courtier",
    "MT PHONE": "623-666-3404",
    "ADDRESS": "4255 W Thunderbird Rd, Phoenix, AZ 85053",
    "Latitude": 33.6092141,
    "Longitude": -112.1502032,
    "CLUB PHONE": "602-603-0811"
  },
  {
    "name": "Tucson",
    "address": "3920 E Grant Rd, Tucson, AZ, 85712",
    "lat": 32.2497118,
    "lng": -110.9085652,
    "id": "#REF!",
    "#": 44.0,
    "CLUB": "Tucson",
    "ID": "#REF!",
    "GM": "Deanna Eyrich",
    "GM CELL": "406-679-1324",
    "AGM": null,
    "MEL": "Opened 2.23.26",
    "GFSTL/GFTL": "Emily Riley-Saxton covering until filled",
    "STL": null,
    "7": null,
    "PTL": "David Corbett",
    "CCTL": "Azaraie Morris",
    "MAINTENANCE TECH": "Gary Payne",
    "MT PHONE": "520-609-4766",
    "ADDRESS": "3920 E Grant Rd, Tucson, AZ, 85712",
    "Latitude": 32.2497118,
    "Longitude": -110.9085652,
    "CLUB PHONE": "520-232-2044"
  },
  {
    "name": "Chandler",
    "address": "1200 N Alma School Rd. Chandler, AZ 85224",
    "lat": 33.3225964,
    "lng": -111.8605382,
    "id": "1035",
    "#": 35.0,
    "CLUB": "Chandler",
    "ID": 1035.0,
    "GM": "Anthony Symonds",
    "GM CELL": "510-681-9039",
    "AGM": null,
    "MEL": "Sakyra Oliver",
    "GFSTL/GFTL": "Connor Wickland covering until filled",
    "STL": null,
    "7": null,
    "PTL": "Daniel Ortega",
    "CCTL": "Amelia Faaumu",
    "MAINTENANCE TECH": "Javier Reyes",
    "MT PHONE": "310-902-5269",
    "ADDRESS": "1200 N Alma School Rd. Chandler, AZ 85224",
    "Latitude": 33.3225964,
    "Longitude": -111.8605382,
    "CLUB PHONE": "602-603-0814"
  },
  {
    "name": "Ogden",
    "address": "1150 Washington Blvd, Ogden, UT 84404",
    "lat": 41.245156,
    "lng": -111.967945,
    "id": "6436",
    "#": 19.0,
    "CLUB": "Ogden",
    "ID": 6436.0,
    "GM": "Matt Hull",
    "GM CELL": "385-469-9404",
    "AGM": null,
    "MEL": "Sierra Shumway",
    "GFSTL/GFTL": "Heather Bloomquist",
    "STL": "Danny Grant",
    "7": 1,
    "PTL": "Mandy Bell",
    "CCTL": "Sydney Westbrook",
    "MAINTENANCE TECH": "Lance Deveraux",
    "MT PHONE": "801-388-5865",
    "ADDRESS": "1150 Washington Blvd, Ogden, UT 84404",
    "Latitude": 41.245156,
    "Longitude": -111.967945,
    "CLUB PHONE": "801-621-8272"
  },
  {
    "name": "Clinton",
    "address": "2642 N 200 W, Clinton, UT 84015",
    "lat": 41.1413182999999,
    "lng": -112.0299352,
    "id": "2546",
    "#": 27.0,
    "CLUB": "Clinton",
    "ID": 2546.0,
    "GM": "Cody Wiser",
    "GM CELL": "435-553-9273",
    "AGM": null,
    "MEL": "Kevin Crosland",
    "GFSTL/GFTL": "Megan Baldwin",
    "STL": "Danielle Goodrich",
    "7": 1,
    "PTL": "Irving Gastelum",
    "CCTL": "Jenna Wheelwright",
    "MAINTENANCE TECH": "Gilbert Mitchell",
    "MT PHONE": "801-645-9295",
    "ADDRESS": "2642 N 200 W, Clinton, UT 84015",
    "Latitude": 41.1413182999999,
    "Longitude": -112.0299352,
    "CLUB PHONE": "801-774-8272"
  },
  {
    "name": "Layton",
    "address": "2076 N Main St, Layton, UT 84041",
    "lat": 41.0908729,
    "lng": -111.9998526,
    "id": "5555",
    "#": 24.0,
    "CLUB": "Layton",
    "ID": 5555.0,
    "GM": "Hugo Luviano",
    "GM CELL": "801-425-9085",
    "AGM": null,
    "MEL": "Dominic Pena-McMahon",
    "GFSTL/GFTL": "Erica Carnivalli",
    "STL": null,
    "7": null,
    "PTL": "Beth O'Driscoll",
    "CCTL": "Kameryn Denny",
    "MAINTENANCE TECH": "Jon Chavez",
    "MT PHONE": "801-668-7387",
    "ADDRESS": "2076 N Main St, Layton, UT 84041",
    "Latitude": 41.0908729,
    "Longitude": -111.9998526,
    "CLUB PHONE": "801-771-8272"
  },
  {
    "name": "Kaysville",
    "address": "170 W 200 N, Kaysville, UT 84037",
    "lat": 41.0386577,
    "lng": -111.9412563,
    "id": "1032",
    "#": 36.0,
    "CLUB": "Kaysville",
    "ID": 1032.0,
    "GM": "Jade Anderson",
    "GM CELL": "801-979-9103",
    "AGM": null,
    "MEL": "Alyssa Pina",
    "GFSTL/GFTL": "Olivia Fox",
    "STL": null,
    "7": null,
    "PTL": "Ariel Warrior",
    "CCTL": "Michelle Lavine",
    "MAINTENANCE TECH": "Chris Seward",
    "MT PHONE": "208-640-4403",
    "ADDRESS": "170 W 200 N, Kaysville, UT 84037",
    "Latitude": 41.0386577,
    "Longitude": -111.9412563,
    "CLUB PHONE": "385-319-7818"
  },
  {
    "name": "Bountiful",
    "address": "250 W 1500 S, Bountiful, UT, 84010",
    "lat": 40.8751706,
    "lng": -111.8866041,
    "id": "7697",
    "#": 13.0,
    "CLUB": "Bountiful",
    "ID": 7697.0,
    "GM": "Opened 2.4.25",
    "GM CELL": "801-317-3935",
    "AGM": null,
    "MEL": "Opened 2.5.26 Dylan Child starts 3.1.26",
    "GFSTL/GFTL": "Amber Wood",
    "STL": null,
    "7": null,
    "PTL": "Vincent Munoz",
    "CCTL": null,
    "MAINTENANCE TECH": "Matthew Sterner",
    "MT PHONE": "801-558-8407",
    "ADDRESS": "250 W 1500 S, Bountiful, UT, 84010",
    "Latitude": 40.8751706,
    "Longitude": -111.8866041,
    "CLUB PHONE": "801-397-2777"
  },
  {
    "name": "Indy Thompson (1)",
    "address": "5325 Thompson Rd, Indianapolis, IN 46237",
    "lat": 39.6965322,
    "lng": -86.0772405,
    "id": "#REF!",
    "#": 49.0,
    "CLUB": "Indy Thompson (1)",
    "ID": "#REF!",
    "GM": "Ellen Switzer",
    "GM CELL": "765-918-4718",
    "AGM": "Will Smith",
    "MEL": "Opened 2.6.26 Will covering for next few weeks",
    "GFSTL/GFTL": "Paula Oliveira-Lamey",
    "STL": "Morris Virgil-Winston",
    "7": 1,
    "PTL": "KT McCallister",
    "CCTL": "Brittany Jones",
    "MAINTENANCE TECH": "Rob Davis/ Don Proctor",
    "MT PHONE": "317-400-5615/ 618-606-6984",
    "ADDRESS": "5325 Thompson Rd, Indianapolis, IN 46237",
    "Latitude": 39.6965322,
    "Longitude": -86.0772405,
    "CLUB PHONE": "317-222-1220"
  },
  {
    "name": "Lafayette",
    "address": "3825 South St, Lafayette, IN 47905",
    "lat": 40.4136659,
    "lng": -86.8362174,
    "id": "#REF!",
    "#": 50.0,
    "CLUB": "Lafayette",
    "ID": "#REF!",
    "GM": "Leanna Early",
    "GM CELL": "219-669-3225",
    "AGM": null,
    "MEL": "Melissa Fields",
    "GFSTL/GFTL": "Opened 1.14.26",
    "STL": null,
    "7": null,
    "PTL": "Jocey Gault",
    "CCTL": "Candance Samaniego",
    "MAINTENANCE TECH": "Trinity Berning",
    "MT PHONE": "765-418-3878",
    "ADDRESS": "3825 South St, Lafayette, IN 47905",
    "Latitude": 40.4136659,
    "Longitude": -86.8362174,
    "CLUB PHONE": "765-637-7282"
  },
  {
    "name": "Indy Eagle Creek (2)",
    "address": "6965 W 38th St, Indianapolis, IN 46254",
    "lat": 39.8212013,
    "lng": -86.2817221,
    "id": "1054",
    "#": 54.0,
    "CLUB": "Indy Eagle Creek (2)",
    "ID": 1054.0,
    "GM": "Kaylah Trombly",
    "GM CELL": "805-708-2490",
    "AGM": null,
    "MEL": "Stephen Holley",
    "GFSTL/GFTL": "Wala Shordom",
    "STL": "Opened 1.14.26",
    "7": 0,
    "PTL": "Matt Crow",
    "CCTL": "Joycelynn West",
    "MAINTENANCE TECH": "Maddisen Roller",
    "MT PHONE": "765-776-7399",
    "ADDRESS": "6965 W 38th St, Indianapolis, IN 46254",
    "Latitude": 39.8212013,
    "Longitude": -86.2817221,
    "CLUB PHONE": "317-559-4244"
  },
  {
    "name": "Indy Castleton",
    "address": "8315 Center Run Dr, Indianapolis, IN 46250",
    "lat": 39.9081306,
    "lng": -86.0566097999999,
    "id": "1079",
    "#": 79.0,
    "CLUB": "Indy Castleton",
    "ID": 1079.0,
    "GM": "Kimberly Robinson",
    "GM CELL": "270-206-2423",
    "AGM": null,
    "MEL": "Leslie Thomas",
    "GFSTL/GFTL": "Jasz Frazier",
    "STL": "Marcus Gray",
    "7": 1,
    "PTL": "Michael Parker",
    "CCTL": "Sofia Vanegas",
    "MAINTENANCE TECH": "Kail Smith",
    "MT PHONE": "765-225-8239",
    "ADDRESS": "8315 Center Run Dr, Indianapolis, IN 46250",
    "Latitude": 39.9081306,
    "Longitude": -86.0566097999999,
    "CLUB PHONE": "314-444-8996"
  },
  {
    "name": "Wheaton",
    "address": "501 South County Farm Rd, Wheaton, IL 60187",
    "lat": 41.8607479,
    "lng": -88.1402713,
    "id": "#REF!",
    "#": 67.0,
    "CLUB": "Wheaton",
    "ID": "#REF!",
    "GM": "Ryan Scumaci",
    "GM CELL": "815-212-4864",
    "AGM": null,
    "MEL": "Deshawn Elliot",
    "GFSTL/GFTL": "Priya Kumar",
    "STL": "Logan Michels",
    "7": 1,
    "PTL": "Khalil Brooks",
    "CCTL": "Dana Meecham",
    "MAINTENANCE TECH": "Abraham Jimenez",
    "MT PHONE": "630-550-9944",
    "ADDRESS": "501 South County Farm Rd, Wheaton, IL 60187",
    "Latitude": 41.8607479,
    "Longitude": -88.1402713,
    "CLUB PHONE": "630-310-8586"
  },
  {
    "name": "Northbrook",
    "address": "4125 E Dundee Road, Northbrook, IL 60062",
    "lat": 42.1370142,
    "lng": -87.8818235999999,
    "id": "1069",
    "#": 69.0,
    "CLUB": "Northbrook",
    "ID": 1069.0,
    "GM": "Brian Kravcar",
    "GM CELL": "630-885-3235",
    "AGM": null,
    "MEL": "Simran Jiandani",
    "GFSTL/GFTL": "Anyuria Delgado",
    "STL": null,
    "7": null,
    "PTL": "Aaron Herrera",
    "CCTL": "Kaylee Dempsey",
    "MAINTENANCE TECH": "Gabriel Smith",
    "MT PHONE": "312-312-1125",
    "ADDRESS": "4125 E Dundee Road, Northbrook, IL 60062",
    "Latitude": 42.1370142,
    "Longitude": -87.8818235999999,
    "CLUB PHONE": "847-233-1071"
  },
  {
    "name": "Crystal Lake",
    "address": "6120 Northwest Highway, Crystal Lake, IL 60014",
    "lat": 42.2274618,
    "lng": -88.3171378999999,
    "id": "1077",
    "#": 77.0,
    "CLUB": "Crystal Lake",
    "ID": 1077.0,
    "GM": "Jennifer Barrer",
    "GM CELL": "630-400-1707",
    "AGM": null,
    "MEL": "Conrado (JR) Penera",
    "GFSTL/GFTL": "Michelle Kpandeyenge",
    "STL": "Mikayla Drake",
    "7": 1,
    "PTL": "Stephen LeDonne",
    "CCTL": "Jacquelyn Butler",
    "MAINTENANCE TECH": "Emmanuel Hernandez-Jimenez",
    "MT PHONE": "815-900-6130",
    "ADDRESS": "6120 Northwest Highway, Crystal Lake, IL 60014",
    "Latitude": 42.2274618,
    "Longitude": -88.3171378999999,
    "CLUB PHONE": "815-429-7048"
  },
  {
    "name": "Villa Park",
    "address": "300 W North Ave, Villa Park, IL 60181",
    "lat": 41.9073882,
    "lng": -87.9863611999999,
    "id": "1056",
    "#": 56.0,
    "CLUB": "Villa Park",
    "ID": 1056.0,
    "GM": "Christian Rivera",
    "GM CELL": "708-835-9502",
    "AGM": null,
    "MEL": "Alicia Salgado",
    "GFSTL/GFTL": "Reniece Ruggs",
    "STL": null,
    "7": null,
    "PTL": "Opened 1.30.26 Ken Woods starts 3.2.26",
    "CCTL": "Edna Garcia",
    "MAINTENANCE TECH": "Andrew Broyles",
    "MT PHONE": "630-943-5841",
    "ADDRESS": "300 W North Ave, Villa Park, IL 60181",
    "Latitude": 41.9073882,
    "Longitude": -87.9863611999999,
    "CLUB PHONE": "630-785-2626"
  },
  {
    "name": "New Berlin",
    "address": "13995 W National Ave, New Berlin, WI 53151",
    "lat": 42.9846013,
    "lng": -88.0874827,
    "id": "1057",
    "#": 57.0,
    "CLUB": "New Berlin",
    "ID": 1057.0,
    "GM": "Albert Fung",
    "GM CELL": "312-539-6156",
    "AGM": null,
    "MEL": "Grace Cruz Lugo",
    "GFSTL/GFTL": "Olive Fuchs",
    "STL": null,
    "7": null,
    "PTL": "Amy Friese",
    "CCTL": "Opened 1.28.26 Gracemarie Cruz Lugo covering until filled",
    "MAINTENANCE TECH": "Opened 2.16.26 Mike Erickson last day 3.2.26",
    "MT PHONE": "262-825-3199",
    "ADDRESS": "13995 W National Ave, New Berlin, WI 53151",
    "Latitude": 42.9846013,
    "Longitude": -88.0874827,
    "CLUB PHONE": "262-258-2920"
  },
  {
    "name": "Racine",
    "address": "5201 Washington Ave, Suite 4, Racine, WI 53406",
    "lat": 42.7171489,
    "lng": -87.8431572,
    "id": "1071",
    "#": 71.0,
    "CLUB": "Racine",
    "ID": 1071.0,
    "GM": "Shelby Crawford",
    "GM CELL": "262-977-1850",
    "AGM": null,
    "MEL": "Maha Alchaar",
    "GFSTL/GFTL": "Hailey Rubisch",
    "STL": "Maddie Wills starts 3.16.26",
    "7": 1,
    "PTL": "Jeremiah Hull",
    "CCTL": "Nicolas Lopez",
    "MAINTENANCE TECH": "Hugo Hernandez",
    "MT PHONE": "414-491-9881",
    "ADDRESS": "5201 Washington Ave, Suite 4, Racine, WI 53406",
    "Latitude": 42.7171489,
    "Longitude": -87.8431572,
    "CLUB PHONE": "262-258-0982"
  },
  {
    "name": "Rockford",
    "address": "2601 N Mulford RD, Unit A, Rockford, IL, 61114",
    "lat": 42.298884,
    "lng": -88.9977638,
    "id": "1076",
    "#": 76.0,
    "CLUB": "Rockford",
    "ID": 1076.0,
    "GM": "Jonathan Hanson",
    "GM CELL": "515-338-0141",
    "AGM": null,
    "MEL": "Xavier Kimbrough",
    "GFSTL/GFTL": "Opened 2.23.26 Lynn Early last day 3.7.26",
    "STL": "Mary Angeline Kaminski",
    "7": 1,
    "PTL": "Cortnee McReynolds",
    "CCTL": "Akayla Flannigan",
    "MAINTENANCE TECH": "Jon Huls",
    "MT PHONE": "608-302-8647",
    "ADDRESS": "2601 N Mulford RD, Unit A, Rockford, IL, 61114",
    "Latitude": 42.298884,
    "Longitude": -88.9977638,
    "CLUB PHONE": "815-930-3323"
  },
  {
    "name": "Joliet",
    "address": "1590 N Larkin Ave, Joliet, IL 60435",
    "lat": 41.5508059,
    "lng": -88.1247851999999,
    "id": "#REF!",
    "#": 55.0,
    "CLUB": "Joliet",
    "ID": "#REF!",
    "GM": "Kevin Macias",
    "GM CELL": "630-597-3088",
    "AGM": null,
    "MEL": "Devon Coleman",
    "GFSTL/GFTL": "Zee Santiago",
    "STL": null,
    "7": null,
    "PTL": "Jose Martinez",
    "CCTL": "Marina Badillo",
    "MAINTENANCE TECH": "Carlos Reyes",
    "MT PHONE": "779-279-2117",
    "ADDRESS": "1590 N Larkin Ave, Joliet, IL 60435",
    "Latitude": 41.5508059,
    "Longitude": -88.1247851999999,
    "CLUB PHONE": "815-352-6895"
  },
  {
    "name": "Glendale Heights",
    "address": "125 Army Trail Rd, Glendale Heights, IL 60139",
    "lat": 41.937251,
    "lng": -88.0966399,
    "id": "1063",
    "#": 63.0,
    "CLUB": "Glendale Heights",
    "ID": 1063.0,
    "GM": "Clint Campbell",
    "GM CELL": "773-968-1079",
    "AGM": null,
    "MEL": "Jacqueline Goins",
    "GFSTL/GFTL": "Lisa Piec",
    "STL": "Christian Rodriguez",
    "7": 1,
    "PTL": "Lilia Guralnik",
    "CCTL": "Leidy Walleck",
    "MAINTENANCE TECH": "Edwin Martinez Jr",
    "MT PHONE": "312-481-0423",
    "ADDRESS": "125 Army Trail Rd, Glendale Heights, IL 60139",
    "Latitude": 41.937251,
    "Longitude": -88.0966399,
    "CLUB PHONE": "630-517-4582"
  },
  {
    "name": "Oswego",
    "address": "3010 Route 34, Oswego, IL 60543",
    "lat": 41.6968477,
    "lng": -88.3152751,
    "id": "#REF!",
    "#": 66.0,
    "CLUB": "Oswego",
    "ID": "#REF!",
    "GM": "Opened 2.9.26 Justin Rudow covering until filled",
    "GM CELL": "630-802-9230",
    "AGM": "Jack Dorsey",
    "MEL": "Carmen Adams",
    "GFSTL/GFTL": "Mindy Ehrenfeld",
    "STL": "Opened 1.27.26",
    "7": 0,
    "PTL": "Bri Seidelman",
    "CCTL": "Elizabeth Shields",
    "MAINTENANCE TECH": "Emilio Larregui",
    "MT PHONE": "630-200-1912",
    "ADDRESS": "3010 Route 34, Oswego, IL 60543",
    "Latitude": 41.6968477,
    "Longitude": -88.3152751,
    "CLUB PHONE": "630-987-4251"
  },
  {
    "name": "Matteson",
    "address": "4011 Lincoln Highway, Matteson, IL 60443",
    "lat": 41.5038648,
    "lng": -87.714147,
    "id": "1074",
    "#": 74.0,
    "CLUB": "Matteson",
    "ID": 1074.0,
    "GM": "Shaneeka Johnson",
    "GM CELL": "773-597-5624",
    "AGM": null,
    "MEL": "Eshe Mance-Porter",
    "GFSTL/GFTL": "Linda Maurella",
    "STL": "Opened 2.18.26",
    "7": 0,
    "PTL": "Davon Smith",
    "CCTL": "Lizzie Welch",
    "MAINTENANCE TECH": "K'Shawn Davis",
    "MT PHONE": "313-329-3199",
    "ADDRESS": "4011 Lincoln Highway, Matteson, IL 60443",
    "Latitude": 41.5038648,
    "Longitude": -87.714147,
    "CLUB PHONE": "708-688-0073"
  },
  {
    "name": "Greeley",
    "address": "2325 23rd Ave, Greeley, CO 80634",
    "lat": 40.3996117,
    "lng": -104.717551,
    "id": "#REF!",
    "#": 22.0,
    "CLUB": "Greeley",
    "ID": "#REF!",
    "GM": "Molly Billadeau",
    "GM CELL": "970-988-1425",
    "AGM": null,
    "MEL": "Sofia Ruelas",
    "GFSTL/GFTL": "Lorie Chance",
    "STL": null,
    "7": null,
    "PTL": "Angel Tarango",
    "CCTL": "Schuyler Tonn",
    "MAINTENANCE TECH": "Sean Norton",
    "MT PHONE": "720-645-4610",
    "ADDRESS": "2325 23rd Ave, Greeley, CO 80634",
    "Latitude": 40.3996117,
    "Longitude": -104.717551,
    "CLUB PHONE": "970-356-8272"
  },
  {
    "name": "Thornton",
    "address": "1420 E 104th Ave, Thornton, CO 80233",
    "lat": 39.8827031,
    "lng": -104.969867,
    "id": "#REF!",
    "#": 30.0,
    "CLUB": "Thornton",
    "ID": "#REF!",
    "GM": "Opened 12.16.25",
    "GM CELL": null,
    "AGM": null,
    "MEL": "Gabriel (Sonny) Kerrihard",
    "GFSTL/GFTL": "Opened 11.21.25",
    "STL": "Opened 1.29.26",
    "7": 0,
    "PTL": "Nicholas Garcia",
    "CCTL": "Opened 2.17.26 Nataly Priego starts 2.26.26",
    "MAINTENANCE TECH": "Steve Wise",
    "MT PHONE": "505-550-7827",
    "ADDRESS": "1420 E 104th Ave, Thornton, CO 80233",
    "Latitude": 39.8827031,
    "Longitude": -104.969867,
    "CLUB PHONE": "303-255-8272"
  },
  {
    "name": "Westminster Church (1)",
    "address": "8543 Church Ranch Blvd, Westminster, CO 80021",
    "lat": 39.8807152,
    "lng": -105.0930303,
    "id": "#REF!",
    "#": 29.0,
    "CLUB": "Westminster Church (1)",
    "ID": "#REF!",
    "GM": "Jordan Brown",
    "GM CELL": "206-802-5752",
    "AGM": null,
    "MEL": "Nicolas Martinez",
    "GFSTL/GFTL": "Ireland Shea",
    "STL": "Brittany Kurtz",
    "7": 1,
    "PTL": "Yaya Jora",
    "CCTL": "Kelley Benavides",
    "MAINTENANCE TECH": "Opened 2.9.26",
    "MT PHONE": "303-414-9002",
    "ADDRESS": "8543 Church Ranch Blvd, Westminster, CO 80021",
    "Latitude": 39.8807152,
    "Longitude": -105.0930303,
    "CLUB PHONE": "303-297-8272"
  },
  {
    "name": "Westminster Federal (2)",
    "address": "7353 Federal Blvd, Westminster, CO 80030",
    "lat": 39.8296721,
    "lng": -105.0274326,
    "id": "#REF!",
    "#": 59.0,
    "CLUB": "Westminster Federal (2)",
    "ID": "#REF!",
    "GM": "Adam Roberts",
    "GM CELL": "903-701-7054",
    "AGM": null,
    "MEL": "Calvin Queen",
    "GFSTL/GFTL": "Stephanie LaMalfa",
    "STL": "Kenny Kriegel",
    "7": 1,
    "PTL": "Joshua Francis",
    "CCTL": "Monica Valdez",
    "MAINTENANCE TECH": "David Brena",
    "MT PHONE": "720-257-1433",
    "ADDRESS": "7353 Federal Blvd, Westminster, CO 80030",
    "Latitude": 39.8296721,
    "Longitude": -105.0274326,
    "CLUB PHONE": "303-317-2630"
  },
  {
    "name": "Westminster Zuni (3)",
    "address": "12900 Zuni St, Westminster, CO 80234",
    "lat": 39.9303041999999,
    "lng": -105.01328,
    "id": "1064",
    "#": 64.0,
    "CLUB": "Westminster Zuni (3)",
    "ID": 1064.0,
    "GM": "Nico Ruscitti",
    "GM CELL": "970-301-5430",
    "AGM": null,
    "MEL": "America Baeza",
    "GFSTL/GFTL": "Rachel Smith",
    "STL": "Elena Greenwalt",
    "7": 1,
    "PTL": "Terence Mahoney",
    "CCTL": "Caitlin Sanders",
    "MAINTENANCE TECH": "Bobby Perez",
    "MT PHONE": "719-487-4366",
    "ADDRESS": "12900 Zuni St, Westminster, CO 80234",
    "Latitude": 39.9303041999999,
    "Longitude": -105.01328,
    "CLUB PHONE": "720-506-3434"
  },
  {
    "name": "Longmont",
    "address": "630 Pace Street, Longmont, CO, 80504",
    "lat": 40.1669405,
    "lng": -105.0741687,
    "id": "1078",
    "#": 78.0,
    "CLUB": "Longmont",
    "ID": 1078.0,
    "GM": "Erick Palomino",
    "GM CELL": "970-393-3384",
    "AGM": null,
    "MEL": "Sarah Moore",
    "GFSTL/GFTL": "Jaime Arreola",
    "STL": "Liliana Resendiz Ramirez",
    "7": 1,
    "PTL": "Opened 1.27.26",
    "CCTL": "Gustavo Pedraza",
    "MAINTENANCE TECH": "Cisco Vasquez",
    "MT PHONE": "720-312-0278",
    "ADDRESS": "630 Pace Street, Longmont, CO, 80504",
    "Latitude": 40.1669405,
    "Longitude": -105.0741687,
    "CLUB PHONE": "720-770-8946"
  },
  {
    "name": "Lafayette-Baseline",
    "address": "480 US Highway 287, Lafayette, CO, 80025",
    "lat": 40.0015067,
    "lng": -105.1017767,
    "id": "1073",
    "#": 73.0,
    "CLUB": "Lafayette-Baseline",
    "ID": 1073.0,
    "GM": "Shelby Wade",
    "GM CELL": "303-889-9718",
    "AGM": null,
    "MEL": "Gabriela Lopez-Ortiz",
    "GFSTL/GFTL": "Heather Doran",
    "STL": "Zoe Colombo",
    "7": 1,
    "PTL": "Marietta Roberts",
    "CCTL": "Kelsey Hughes",
    "MAINTENANCE TECH": "Anthony Battrick",
    "MT PHONE": "619-213-2334",
    "ADDRESS": "480 US Highway 287, Lafayette, CO, 80025",
    "Latitude": 40.0015067,
    "Longitude": -105.1017767,
    "CLUB PHONE": "720-666-6589"
  },
  {
    "name": "Littleton",
    "address": "8055 West Bowles Ave, #2R, Littleton, CO 80123",
    "lat": 39.6110584,
    "lng": -105.0883094,
    "id": "#REF!",
    "#": 33.0,
    "CLUB": "Littleton",
    "ID": "#REF!",
    "GM": "Opened 1.28.26 Sarah Fox starts 3.16.26",
    "GM CELL": "210-741-0960",
    "AGM": null,
    "MEL": "Daniel Hendel",
    "GFSTL/GFTL": "Maura Campbell",
    "STL": "Rick Allman",
    "7": 1,
    "PTL": "Opened 2.2.26 Shawn Glade starts 3.2.26",
    "CCTL": "Abygayly Chavez",
    "MAINTENANCE TECH": "Seo Hughes",
    "MT PHONE": "720-357-9870",
    "ADDRESS": "8055 West Bowles Ave, #2R, Littleton, CO 80123",
    "Latitude": 39.6110584,
    "Longitude": -105.0883094,
    "CLUB PHONE": "720-981-8272"
  },
  {
    "name": "Aurora Quincy (A1)",
    "address": "16921 E Quincy Ave, Aurora, CO 80015",
    "lat": 39.640124,
    "lng": -104.7902234,
    "id": "#REF!",
    "#": 23.0,
    "CLUB": "Aurora Quincy (A1)",
    "ID": "#REF!",
    "GM": "Ethan Blane",
    "GM CELL": "216-570-2464",
    "AGM": null,
    "MEL": "Chris Brandt",
    "GFSTL/GFTL": "Jeannette Cabrera",
    "STL": "Opened 1.5.26 Mady Kendrick starts 3.17.26",
    "7": 1,
    "PTL": "Laila Buxton",
    "CCTL": "Berenise Vargas",
    "MAINTENANCE TECH": "Jamie Garcia",
    "MT PHONE": "970-393-3359",
    "ADDRESS": "16921 E Quincy Ave, Aurora, CO 80015",
    "Latitude": 39.640124,
    "Longitude": -104.7902234,
    "CLUB PHONE": "303-366-8272"
  },
  {
    "name": "Aurora Colfax (A2)",
    "address": "15200 E Colfax Ave, Aurora, CO 80011",
    "lat": 39.7378758,
    "lng": -104.8107843,
    "id": "#REF!",
    "#": 40.0,
    "CLUB": "Aurora Colfax (A2)",
    "ID": "#REF!",
    "GM": "Beth Ann Faaist",
    "GM CELL": "770-547-0820",
    "AGM": null,
    "MEL": "Joe Cassella",
    "GFSTL/GFTL": "Tina Garcia",
    "STL": "Chelsie McCoy",
    "7": 1,
    "PTL": "Opened 11.11.25 Bella Bartel starts 3.3.26",
    "CCTL": "Karina Rodriguez",
    "MAINTENANCE TECH": "Ryan Davis starts 2.25.26",
    "MT PHONE": "720-272-8638",
    "ADDRESS": "15200 E Colfax Ave, Aurora, CO 80011",
    "Latitude": 39.7378758,
    "Longitude": -104.8107843,
    "CLUB PHONE": "719-294-6630"
  },
  {
    "name": "Aurora Havana",
    "address": "1200 South Ironton Street, Aurora, CO 80012",
    "lat": 39.6944296,
    "lng": -104.8627922,
    "id": "1082",
    "#": 82.0,
    "CLUB": "Aurora Havana",
    "ID": 1082.0,
    "GM": "Stephen Fitzpatrick-Clements",
    "GM CELL": "720-251-9558",
    "AGM": null,
    "MEL": "Andy Rivera Varela",
    "GFSTL/GFTL": "Fabricia Candida Pereira",
    "STL": "Lauren Mcgarry",
    "7": null,
    "PTL": "Landyn Garcia",
    "CCTL": "Seva Lords",
    "MAINTENANCE TECH": "Tim Behrens",
    "MT PHONE": "720-793-4096",
    "ADDRESS": "1200 South Ironton Street, Aurora, CO 80012",
    "Latitude": 39.6944296,
    "Longitude": -104.8627922,
    "CLUB PHONE": "720-506-3644"
  },
  {
    "name": "Denver Jewell (DJS)",
    "address": "1955 S Sheridan Blvd, Denver, CO 80227",
    "lat": 39.6811494,
    "lng": -105.0551935,
    "id": "#REF!",
    "#": 26.0,
    "CLUB": "Denver Jewell (DJS)",
    "ID": "#REF!",
    "GM": "Opened 12.12.25",
    "GM CELL": null,
    "AGM": "Freddie Gutierrez",
    "MEL": "David Karpas",
    "GFSTL/GFTL": "Nichole Portales",
    "STL": "Lex Watson",
    "7": 1,
    "PTL": "Promise Butler",
    "CCTL": "Roxanna Martinez Keating starts 10.25.24",
    "MAINTENANCE TECH": "Paul Aguilar/ Jacob Norris",
    "MT PHONE": "720-249-7267/ 256-626-1453",
    "ADDRESS": "1955 S Sheridan Blvd, Denver, CO 80227",
    "Latitude": 39.6811494,
    "Longitude": -105.0551935,
    "CLUB PHONE": "303-985-8272"
  },
  {
    "name": "COS1 Cheyenne",
    "address": "455 E Cheyenne Mountain Blvd, Colorado Springs 80906",
    "lat": 38.7882409,
    "lng": -104.8208818,
    "id": "#REF!",
    "#": 28.0,
    "CLUB": "COS1 Cheyenne",
    "ID": "#REF!",
    "GM": "Samantha Pare",
    "GM CELL": "315-254-5367",
    "AGM": null,
    "MEL": "Aiden Wisdom",
    "GFSTL/GFTL": "Mary Smith",
    "STL": null,
    "7": null,
    "PTL": "Danielle Mounts",
    "CCTL": "Breanna White",
    "MAINTENANCE TECH": "Jeremy Chavez",
    "MT PHONE": "719-651-3109",
    "ADDRESS": "455 E Cheyenne Mountain Blvd, Colorado Springs 80906",
    "Latitude": 38.7882409,
    "Longitude": -104.8208818,
    "CLUB PHONE": "719-630-8272"
  },
  {
    "name": "COS2 Nevada Ave",
    "address": "3020 N Nevada Ave, Colorado Springs, CO 80907",
    "lat": 38.8759283,
    "lng": -104.8219323,
    "id": "1039",
    "#": 41.0,
    "CLUB": "COS2 Nevada Ave",
    "ID": 1039.0,
    "GM": "Dean Halvorson",
    "GM CELL": "970-576-8213",
    "AGM": "Opened 1.13.26 Savannah Yankee starts 3.9.26",
    "MEL": "Jared Wrona",
    "GFSTL/GFTL": "Roxanne Combs",
    "STL": "Melissa Morales",
    "7": 1,
    "PTL": "Craig Soulka",
    "CCTL": "Natalia Blasini-Perez",
    "MAINTENANCE TECH": "Joseph Thompson + 1",
    "MT PHONE": "719-675-9997",
    "ADDRESS": "3020 N Nevada Ave, Colorado Springs, CO 80907",
    "Latitude": 38.8759283,
    "Longitude": -104.8219323,
    "CLUB PHONE": "719-302-2273"
  },
  {
    "name": "COS3 North Powers",
    "address": "5885 Palmer Park Blvd, Colorado Springs, CO 80915",
    "lat": 38.8561729,
    "lng": -104.7181507,
    "id": "1070",
    "#": 70.0,
    "CLUB": "COS3 North Powers",
    "ID": 1070.0,
    "GM": "Greg Aubuchon",
    "GM CELL": "832-893-9765",
    "AGM": "Leah Kegle",
    "MEL": "Tyler Manus",
    "GFSTL/GFTL": "Melissa Whiseant",
    "STL": "Amanda Sheble",
    "7": 1,
    "PTL": "Caleb Barnes",
    "CCTL": "Audriana Gutierrez",
    "MAINTENANCE TECH": "Dyllan Lesondak",
    "MT PHONE": "719-678-2087",
    "ADDRESS": "5885 Palmer Park Blvd, Colorado Springs, CO 80915",
    "Latitude": 38.8561729,
    "Longitude": -104.7181507,
    "CLUB PHONE": "719-988-7095"
  },
  {
    "name": "COS4 Union",
    "address": "7655 North Union Blvd, Colorado Springs, CO 80920",
    "lat": 38.9425538,
    "lng": -104.7734251,
    "id": "1075",
    "#": 75.0,
    "CLUB": "COS4 Union",
    "ID": 1075.0,
    "GM": "Allyson Hernandez",
    "GM CELL": "928-542-9940",
    "AGM": null,
    "MEL": "Bailey Williams",
    "GFSTL/GFTL": "Elaine Baca",
    "STL": "Abby Swayne",
    "7": 1,
    "PTL": "Kaleel Pernsley",
    "CCTL": "Juanna Wittenbach",
    "MAINTENANCE TECH": "Robert Woerner",
    "MT PHONE": "719-394-5596",
    "ADDRESS": "7655 North Union Blvd, Colorado Springs, CO 80920",
    "Latitude": 38.9425538,
    "Longitude": -104.7734251,
    "CLUB PHONE": "719-302-5540"
  },
  {
    "name": "Centennial Willow Creek",
    "address": "8200 S Quebec St, Centennial, CO 80112",
    "lat": 39.5681002,
    "lng": -104.9031152,
    "id": "2368",
    "#": 25.0,
    "CLUB": "Centennial Willow Creek",
    "ID": 2368.0,
    "GM": "Riley Stricherz",
    "GM CELL": "970-415-0425",
    "AGM": null,
    "MEL": "Vaughn Fines",
    "GFSTL/GFTL": "Melissa Christopher",
    "STL": "MJ Oconnor",
    "7": 1,
    "PTL": "Ty Hickey",
    "CCTL": "Tatiana Johnston",
    "MAINTENANCE TECH": "Tristen Eden",
    "MT PHONE": "256-300-8999",
    "ADDRESS": "8200 S Quebec St, Centennial, CO 80112",
    "Latitude": 39.5681002,
    "Longitude": -104.9031152,
    "CLUB PHONE": "303-790-8272"
  },
  {
    "name": "Smoky Hill Centennial",
    "address": "20153 E Smoky Hill Rd, Centennial, CO 80015",
    "lat": 39.6120151999999,
    "lng": -104.7524585,
    "id": "#REF!",
    "#": 61.0,
    "CLUB": "Smoky Hill Centennial",
    "ID": "#REF!",
    "GM": "Lindsay Hyde",
    "GM CELL": "303-601-0115",
    "AGM": null,
    "MEL": "Xitlaly Avitia-Valdez",
    "GFSTL/GFTL": "Melanie Darling",
    "STL": "Heather Timmons",
    "7": 1,
    "PTL": "Opened 2.3.26 Nicolle Hunt covering until filled",
    "CCTL": "Sofia Carrillo",
    "MAINTENANCE TECH": "Jacob Dreiling",
    "MT PHONE": "303-912-6577",
    "ADDRESS": "20153 E Smoky Hill Rd, Centennial, CO 80015",
    "Latitude": 39.6120151999999,
    "Longitude": -104.7524585,
    "CLUB PHONE": "303-317-5579"
  },
  {
    "name": "Tulsa",
    "address": "7990 E 51st Street, Tulsa, OK 74145",
    "lat": 36.0885588,
    "lng": -95.8878385,
    "id": "#REF!",
    "#": 32.0,
    "CLUB": "Tulsa",
    "ID": "#REF!",
    "GM": "Opened 2.2.26",
    "GM CELL": null,
    "AGM": null,
    "MEL": "Matthew Rusk",
    "GFSTL/GFTL": "Rachel Bell",
    "STL": "Allison Alisauskas",
    "7": 1,
    "PTL": "Madelynn Snedden",
    "CCTL": "Taimie Rodriguez",
    "MAINTENANCE TECH": "Opened 2.16.26 Jeremy Dodson last day 3.2.26",
    "MT PHONE": "918-859-4221",
    "ADDRESS": "7990 E 51st Street, Tulsa, OK 74145",
    "Latitude": 36.0885588,
    "Longitude": -95.8878385,
    "CLUB PHONE": "918-984-1044"
  },
  {
    "name": "OKC Penn",
    "address": "2500 N Pennsylvania Ave, Oklahoma City, OK 73107",
    "lat": 35.4942739,
    "lng": -97.5461632,
    "id": "#REF!",
    "#": 45.0,
    "CLUB": "OKC Penn",
    "ID": "#REF!",
    "GM": "Desiree Wright",
    "GM CELL": "405-697-8472",
    "AGM": null,
    "MEL": "Brandon Looper",
    "GFSTL/GFTL": "Sarah Shuck",
    "STL": "Karis Taylor",
    "7": 1,
    "PTL": "Julie Hobbs",
    "CCTL": "Jesilee Riley",
    "MAINTENANCE TECH": "Jacob Dart",
    "MT PHONE": "405-760-8489",
    "ADDRESS": "2500 N Pennsylvania Ave, Oklahoma City, OK 73107",
    "Latitude": 35.4942739,
    "Longitude": -97.5461632,
    "CLUB PHONE": "405-992-0670"
  },
  {
    "name": "OKC Western",
    "address": "4106 S Western Ave, Oklahoma City, OK 73109",
    "lat": 35.4240498,
    "lng": -97.5283627,
    "id": "#REF!",
    "#": 34.0,
    "CLUB": "OKC Western",
    "ID": "#REF!",
    "GM": "Mary Giblin",
    "GM CELL": "405-201-7764",
    "AGM": null,
    "MEL": "Alexander Hurst",
    "GFSTL/GFTL": "Alyssa Hankins",
    "STL": null,
    "7": null,
    "PTL": "Brandon Tims",
    "CCTL": "Jessica Pallares",
    "MAINTENANCE TECH": "Joshua Murphy",
    "MT PHONE": "405-570-4982",
    "ADDRESS": "4106 S Western Ave, Oklahoma City, OK 73109",
    "Latitude": 35.4240498,
    "Longitude": -97.5283627,
    "CLUB PHONE": "405-992-0210"
  },
  {
    "name": "Omaha",
    "address": "14445 W Center Rd, Omaha, NE 68144",
    "lat": 41.2322704,
    "lng": -96.1401849,
    "id": "#REF!",
    "#": 65.0,
    "CLUB": "Omaha",
    "ID": "#REF!",
    "GM": "Chessa Vitamvas",
    "GM CELL": "719-271-1485",
    "AGM": null,
    "MEL": "Andrew Henderson",
    "GFSTL/GFTL": "Tracy Krelle",
    "STL": "Megan Wilde",
    "7": 1,
    "PTL": "Hampton Kaye-Kuter",
    "CCTL": "Tanner Russell",
    "MAINTENANCE TECH": "Kyle Summerlin",
    "MT PHONE": "402-405-7146",
    "ADDRESS": "14445 W Center Rd, Omaha, NE 68144",
    "Latitude": 41.2322704,
    "Longitude": -96.1401849,
    "CLUB PHONE": "402-534-1193"
  },
  {
    "name": "Lincoln",
    "address": "4615 Vine Street, Lincoln, NE 68503",
    "lat": 40.8196412,
    "lng": -96.6560267,
    "id": "1068",
    "#": 68.0,
    "CLUB": "Lincoln",
    "ID": 1068.0,
    "GM": "Opened 1.22.26",
    "GM CELL": null,
    "AGM": null,
    "MEL": "Madeline Easter",
    "GFSTL/GFTL": "Megan Nicholson",
    "STL": "June Jones",
    "7": 1,
    "PTL": "Abby Hochstein",
    "CCTL": "Hayley Murphy",
    "MAINTENANCE TECH": "Jeremy Webb",
    "MT PHONE": "281-650-7090",
    "ADDRESS": "4615 Vine Street, Lincoln, NE 68503",
    "Latitude": 40.8196412,
    "Longitude": -96.6560267,
    "CLUB PHONE": "402-262-6328"
  },
  {
    "name": "Bellevue",
    "address": "909 Fort Crook Road, Bellevue, NE, 68005",
    "lat": 41.1753682,
    "lng": -95.9242790999999,
    "id": "1072",
    "#": 72.0,
    "CLUB": "Bellevue",
    "ID": 1072.0,
    "GM": "Taylor Wageman",
    "GM CELL": "402-510-7646",
    "AGM": null,
    "MEL": "Ryan Patterson",
    "GFSTL/GFTL": "Yolanda Smalls",
    "STL": "Roni Harless",
    "7": 1,
    "PTL": "Kayla Horan",
    "CCTL": "CJ Ginther",
    "MAINTENANCE TECH": "Joe Tyler",
    "MT PHONE": "402-906-6870",
    "ADDRESS": "909 Fort Crook Road, Bellevue, NE, 68005",
    "Latitude": 41.1753682,
    "Longitude": -95.9242790999999,
    "CLUB PHONE": "402-370-5762"
  }
]
